<?xml version="1.0" encoding="utf-8"?>
<ArrayOfVolunteer>
  <Volunteer>
    <Id>332180850</Id>
    <Name>Haleli (Test Volunteer)</Name>
    <Phone>050-1234567</Phone>
    <Email>shulamit5751@gmail.com</Email>
    <IsActive>true</IsActive>
    <Role>Volunteer</Role>
    <Address>120 Dizengoff St, Tel Aviv</Address>
    <Latitude>32.08</Latitude>
    <Longitude>34.78</Longitude>
    <LargestDistance>10000</LargestDistance>
    <DistanceType>DrivingDistance</DistanceType>
    <Password>672dd0e482838af4b169f201c6c5d341dfe548dc4e49f40e8f259fc8a0ef31bc</Password>
  </Volunteer>
  <Volunteer>
    <Id>214323222</Id>
    <Name>Super Admin</Name>
    <Phone>052-0000000</Phone>
    <Email>rachlios2005@gmail.com</Email>
    <IsActive>true</IsActive>
    <Role>Manager</Role>
    <Address>mevo livna 5</Address>
    <Latitude>32.1</Latitude>
    <Longitude>34.8</Longitude>
    <LargestDistance>500000</LargestDistance>
    <DistanceType>DrivingDistance</DistanceType>
    <Password>fcf54686715f0c0e913801274a47380b6681da8440a9652cb92c1261e3af35e6</Password>
  </Volunteer>
  <Volunteer>
    <Id>215639212</Id>
    <Name>David Cohen</Name>
    <Phone>0838013994</Phone>
    <Email>davidcohen@gmail.com</Email>
    <IsActive>true</IsActive>
    <Role>Volunteer</Role>
    <Address>120 Dizengoff St, Tel Aviv</Address>
    <Latitude>32.0736</Latitude>
    <Longitude>34.7704</Longitude>
    <LargestDistance>14745</LargestDistance>
    <DistanceType>DrivingDistance</DistanceType>
  </Volunteer>
  <Volunteer>
    <Id>215525197</Id>
    <Name>Yaara Levy</Name>
    <Phone>0971808783</Phone>
    <Email>yaaralevy@gmail.com</Email>
    <IsActive>true</IsActive>
    <Role>Volunteer</Role>
    <Address>15 Herzl St, Haifa</Address>
    <Latitude>32.0739</Latitude>
    <Longitude>34.8221</Longitude>
    <LargestDistance>38103</LargestDistance>
    <DistanceType>AirDistance</DistanceType>
  </Volunteer>
  <Volunteer>
    <Id>328118245</Id>
    <Name>Matan Mizrahi</Name>
    <Phone>0995009108</Phone>
    <Email>matanmizrahi@gmail.com</Email>
    <IsActive>true</IsActive>
    <Role>Volunteer</Role>
    <Address>30 Jaffa St, Jerusalem</Address>
    <Latitude>32.8194</Latitude>
    <Longitude>34.989</Longitude>
    <LargestDistance>15119</LargestDistance>
    <DistanceType>DrivingDistance</DistanceType>
  </Volunteer>
  <Volunteer>
    <Id>214821423</Id>
    <Name>Tamar Shapiro</Name>
    <Phone>0942581195</Phone>
    <Email>tamarshapiro@gmail.com</Email>
    <IsActive>true</IsActive>
    <Role>Volunteer</Role>
    <Address>22 Rothschild Blvd, Tel Aviv</Address>
    <Latitude>32.0702</Latitude>
    <Longitude>34.7915</Longitude>
    <LargestDistance>45390</LargestDistance>
    <DistanceType>AirDistance</DistanceType>
  </Volunteer>
  <Volunteer>
    <Id>326365574</Id>
    <Name>Oren Ben-David</Name>
    <Phone>0603940931</Phone>
    <Email>orenben-david@gmail.com</Email>
    <IsActive>true</IsActive>
    <Role>Volunteer</Role>
    <Address>10 Derech HaShalom, Ramat Gan</Address>
    <Latitude>31.7702</Latitude>
    <Longitude>35.2137</Longitude>
    <LargestDistance>90821</LargestDistance>
    <DistanceType>AirDistance</DistanceType>
  </Volunteer>
  <Volunteer>
    <Id>328128061</Id>
    <Name>Yael Peretz</Name>
    <Phone>0243471704</Phone>
    <Email>yaelperetz@gmail.com</Email>
    <IsActive>true</IsActive>
    <Role>Volunteer</Role>
    <Address>1 HaNassi Blvd, Haifa</Address>
    <Latitude>32.0782</Latitude>
    <Longitude>34.7839</Longitude>
    <LargestDistance>75064</LargestDistance>
    <DistanceType>WalkingDistance</DistanceType>
  </Volunteer>
  <Volunteer>
    <Id>327770442</Id>
    <Name>Eliav Rosen</Name>
    <Phone>0982874364</Phone>
    <Email>eliavrosen@gmail.com</Email>
    <IsActive>true</IsActive>
    <Role>Volunteer</Role>
    <Address>45 HaAtzmaut Blvd, Ashdod</Address>
    <Latitude>32.3212</Latitude>
    <Longitude>34.8573</Longitude>
    <LargestDistance>7347</LargestDistance>
    <DistanceType>AirDistance</DistanceType>
  </Volunteer>
  <Volunteer>
    <Id>327548194</Id>
    <Name>Michal Goldstein</Name>
    <Phone>0799284908</Phone>
    <Email>michalgoldstein@gmail.com</Email>
    <IsActive>true</IsActive>
    <Role>Volunteer</Role>
    <Address>88 Allenby St, Tel Aviv</Address>
    <Latitude>32.0951</Latitude>
    <Longitude>34.8874</Longitude>
    <LargestDistance>13013</LargestDistance>
    <DistanceType>DrivingDistance</DistanceType>
  </Volunteer>
  <Volunteer>
    <Id>215086950</Id>
    <Name>Amir Kaplan</Name>
    <Phone>0513705537</Phone>
    <Email>amirkaplan@gmail.com</Email>
    <IsActive>true</IsActive>
    <Role>Volunteer</Role>
    <Address>12 Ben Gurion Blvd, Bat Yam</Address>
    <Latitude>32.1575</Latitude>
    <Longitude>34.7909</Longitude>
    <LargestDistance>95446</LargestDistance>
    <DistanceType>WalkingDistance</DistanceType>
  </Volunteer>
  <Volunteer>
    <Id>215215690</Id>
    <Name>Lior Avrahami</Name>
    <Phone>0684986800</Phone>
    <Email>lioravrahami@gmail.com</Email>
    <IsActive>true</IsActive>
    <Role>Volunteer</Role>
    <Address>20 King George St, Jerusalem</Address>
    <Latitude>29.5596</Latitude>
    <Longitude>34.9494</Longitude>
    <LargestDistance>23817</LargestDistance>
    <DistanceType>DrivingDistance</DistanceType>
  </Volunteer>
  <Volunteer>
    <Id>215252370</Id>
    <Name>Shani Shani</Name>
    <Phone>0363710213</Phone>
    <Email>shanishani@gmail.com</Email>
    <IsActive>true</IsActive>
    <Role>Volunteer</Role>
    <Address>132 Begin Road, Tel Aviv</Address>
    <Latitude>32.1749</Latitude>
    <Longitude>34.7631</Longitude>
    <LargestDistance>2082</LargestDistance>
    <DistanceType>DrivingDistance</DistanceType>
  </Volunteer>
  <Volunteer>
    <Id>328177191</Id>
    <Name>Noa Biton</Name>
    <Phone>0939690459</Phone>
    <Email>noabiton@gmail.com</Email>
    <IsActive>true</IsActive>
    <Role>Volunteer</Role>
    <Address>8 Keren Hayesod St, Jerusalem</Address>
    <Latitude>32.0926</Latitude>
    <Longitude>34.8036</Longitude>
    <LargestDistance>53247</LargestDistance>
    <DistanceType>DrivingDistance</DistanceType>
  </Volunteer>
  <Volunteer>
    <Id>328183934</Id>
    <Name>Yonatan Katz</Name>
    <Phone>0256084806</Phone>
    <Email>yonatankatz@gmail.com</Email>
    <IsActive>true</IsActive>
    <Role>Volunteer</Role>
    <Address>99 Ben Yehuda St, Tel Aviv</Address>
    <Latitude>32.0814</Latitude>
    <Longitude>34.7862</Longitude>
    <LargestDistance>13304</LargestDistance>
    <DistanceType>AirDistance</DistanceType>
  </Volunteer>
  <Volunteer>
    <Id>327786612</Id>
    <Name>Ruth Ziv</Name>
    <Phone>0531500740</Phone>
    <Email>ruthziv@gmail.com</Email>
    <IsActive>true</IsActive>
    <Role>Volunteer</Role>
    <Address>25 Weizmann St, Kfar Saba</Address>
    <Latitude>32.1311</Latitude>
    <Longitude>34.7927</Longitude>
    <LargestDistance>98260</LargestDistance>
    <DistanceType>WalkingDistance</DistanceType>
  </Volunteer>
  <Volunteer>
    <Id>328306550</Id>
    <Name>Doron Barak</Name>
    <Phone>0323238645</Phone>
    <Email>doronbarak@gmail.com</Email>
    <IsActive>true</IsActive>
    <Role>Volunteer</Role>
    <Address>14 Golani Brigade St, Afula</Address>
    <Latitude>31.7665</Latitude>
    <Longitude>34.6292</Longitude>
    <LargestDistance>32093</LargestDistance>
    <DistanceType>WalkingDistance</DistanceType>
  </Volunteer>
  <Volunteer>
    <Id>327820429</Id>
    <Name>Yaara Nachmias</Name>
    <Phone>0557142178</Phone>
    <Email>yaaranachmias@gmail.com</Email>
    <IsActive>true</IsActive>
    <Role>Volunteer</Role>
    <Address>33 Yehuda Halevi St, Tel Aviv</Address>
    <Latitude>32.0509</Latitude>
    <Longitude>34.7657</Longitude>
    <LargestDistance>82969</LargestDistance>
    <DistanceType>WalkingDistance</DistanceType>
  </Volunteer>
  <Volunteer>
    <Id>328276332</Id>
    <Name>Roi Tzukrel</Name>
    <Phone>0157869683</Phone>
    <Email>roitzukrel@gmail.com</Email>
    <IsActive>true</IsActive>
    <Role>Volunteer</Role>
    <Address>77 HaNassi Blvd, Haifa</Address>
    <Latitude>32.0354</Latitude>
    <Longitude>34.7894</Longitude>
    <LargestDistance>32152</LargestDistance>
    <DistanceType>DrivingDistance</DistanceType>
  </Volunteer>
  <Volunteer>
    <Id>328304944</Id>
    <Name>Michal Adler</Name>
    <Phone>0855533083</Phone>
    <Email>michaladler@gmail.com</Email>
    <IsActive>true</IsActive>
    <Role>Volunteer</Role>
    <Address>19 Arlozorov St, Tel Aviv</Address>
    <Latitude>31.9737</Latitude>
    <Longitude>34.836</Longitude>
    <LargestDistance>22809</LargestDistance>
    <DistanceType>AirDistance</DistanceType>
  </Volunteer>
  <Volunteer>
    <Id>215238023</Id>
    <Name>Shir Fridman</Name>
    <Phone>0564397193</Phone>
    <Email>shirfridman@gmail.com</Email>
    <IsActive>true</IsActive>
    <Role>Volunteer</Role>
    <Address>96 HaHashmonaim St, Tel Aviv</Address>
    <Latitude>32.0656</Latitude>
    <Longitude>34.804</Longitude>
    <LargestDistance>33029</LargestDistance>
    <DistanceType>WalkingDistance</DistanceType>
  </Volunteer>
  <Volunteer>
    <Id>327796678</Id>
    <Name>Erez Dayan</Name>
    <Phone>0545786712</Phone>
    <Email>erezdayan@gmail.com</Email>
    <IsActive>true</IsActive>
    <Role>Volunteer</Role>
    <Address>12 Menachem Begin Blvd, Rishon LeZion</Address>
    <Latitude>31.673</Latitude>
    <Longitude>34.6489</Longitude>
    <LargestDistance>1122</LargestDistance>
    <DistanceType>WalkingDistance</DistanceType>
  </Volunteer>
</ArrayOfVolunteer>