<?xml version="1.0" encoding="utf-8"?>
<ArrayOfVolunteer>
  <Volunteer>
    <Id>358959733</Id>
    <Name>David Cohen</Name>
    <Phone>052-1234567</Phone>
    <Email>davidcohen@example.com</Email>
    <IsActive>true</IsActive>
    <Role>Volunteer</Role>
    <Password />
    <Address>10 Nordau Boulevard, Tel Aviv</Address>
    <Latitude>32.0736</Latitude>
    <Longitude>34.7704</Longitude>
    <LargestDistance>52</LargestDistance>
    <DistanceType>WalkingDistance</DistanceType>
  </Volunteer>
  <Volunteer>
    <Id>800529211</Id>
    <Name>Yaara Levy</Name>
    <Phone>052-2345678</Phone>
    <Email>yaaralevy@example.com</Email>
    <IsActive>true</IsActive>
    <Role>Volunteer</Role>
    <Password />
    <Address>5 Bialik Street, Ramat Gan</Address>
    <Latitude>32.0739</Latitude>
    <Longitude>34.8221</Longitude>
    <LargestDistance>80</LargestDistance>
    <DistanceType>AirDistance</DistanceType>
  </Volunteer>
  <Volunteer>
    <Id>200345377</Id>
    <Name>Matan Mizrahi</Name>
    <Phone>052-3456789</Phone>
    <Email>matanmizrahi@example.com</Email>
    <IsActive>true</IsActive>
    <Role>Volunteer</Role>
    <Password />
    <Address>12 HaAtzmaut Street, Haifa</Address>
    <Latitude>32.8194</Latitude>
    <Longitude>34.989</Longitude>
    <LargestDistance>1</LargestDistance>
    <DistanceType>DrivingDistance</DistanceType>
  </Volunteer>
  <Volunteer>
    <Id>707906037</Id>
    <Name>Tamar Shapiro</Name>
    <Phone>052-4567890</Phone>
    <Email>tamarshapiro@example.com</Email>
    <IsActive>true</IsActive>
    <Role>Volunteer</Role>
    <Password />
    <Address>18 Eilat Street, Tel Aviv</Address>
    <Latitude>32.0702</Latitude>
    <Longitude>34.7915</Longitude>
    <LargestDistance>11</LargestDistance>
    <DistanceType>AirDistance</DistanceType>
  </Volunteer>
  <Volunteer>
    <Id>568847615</Id>
    <Name>Oren Ben-David</Name>
    <Phone>052-5678901</Phone>
    <Email>orenben-david@example.com</Email>
    <IsActive>true</IsActive>
    <Role>Volunteer</Role>
    <Password />
    <Address>22 David HaMelech Street, Jerusalem</Address>
    <Latitude>31.7702</Latitude>
    <Longitude>35.2137</Longitude>
    <LargestDistance>82</LargestDistance>
    <DistanceType>WalkingDistance</DistanceType>
  </Volunteer>
  <Volunteer>
    <Id>964143393</Id>
    <Name>Yael Peretz</Name>
    <Phone>052-6789012</Phone>
    <Email>yaelperetz@example.com</Email>
    <IsActive>true</IsActive>
    <Role>Volunteer</Role>
    <Password />
    <Address>30 Yehuda HaLevi Street, Tel Aviv</Address>
    <Latitude>32.0782</Latitude>
    <Longitude>34.7839</Longitude>
    <LargestDistance>68</LargestDistance>
    <DistanceType>DrivingDistance</DistanceType>
  </Volunteer>
  <Volunteer>
    <Id>878120151</Id>
    <Name>Eliav Rosen</Name>
    <Phone>052-7890123</Phone>
    <Email>eliavrosen@example.com</Email>
    <IsActive>true</IsActive>
    <Role>Volunteer</Role>
    <Password />
    <Address>15 HaRav Kook Street, Netanya</Address>
    <Latitude>32.3212</Latitude>
    <Longitude>34.8573</Longitude>
    <LargestDistance>51</LargestDistance>
    <DistanceType>AirDistance</DistanceType>
  </Volunteer>
  <Volunteer>
    <Id>967779447</Id>
    <Name>Michal Goldstein</Name>
    <Phone>052-8901234</Phone>
    <Email>michalgoldstein@example.com</Email>
    <IsActive>true</IsActive>
    <Role>Volunteer</Role>
    <Password />
    <Address>19 HaShomer Street, Petah Tikva</Address>
    <Latitude>32.0951</Latitude>
    <Longitude>34.8874</Longitude>
    <LargestDistance>1</LargestDistance>
    <DistanceType>DrivingDistance</DistanceType>
  </Volunteer>
  <Volunteer>
    <Id>610871695</Id>
    <Name>Amir Kaplan</Name>
    <Phone>052-9012345</Phone>
    <Email>amirkaplan@example.com</Email>
    <IsActive>true</IsActive>
    <Role>Volunteer</Role>
    <Password />
    <Address>9 Shderot HaGalim, Herzliya</Address>
    <Latitude>32.1575</Latitude>
    <Longitude>34.7909</Longitude>
    <LargestDistance>47</LargestDistance>
    <DistanceType>AirDistance</DistanceType>
  </Volunteer>
  <Volunteer>
    <Id>423547126</Id>
    <Name>Lior Avrahami</Name>
    <Phone>052-0123456</Phone>
    <Email>lioravrahami@example.com</Email>
    <IsActive>true</IsActive>
    <Role>Volunteer</Role>
    <Password />
    <Address>7 HaArava Street, Eilat</Address>
    <Latitude>29.5596</Latitude>
    <Longitude>34.9494</Longitude>
    <LargestDistance>74</LargestDistance>
    <DistanceType>WalkingDistance</DistanceType>
  </Volunteer>
  <Volunteer>
    <Id>192085578</Id>
    <Name>Shani Shani</Name>
    <Phone>052-1239876</Phone>
    <Email>shanishani@example.com</Email>
    <IsActive>true</IsActive>
    <Role>Volunteer</Role>
    <Password />
    <Address>4 HaHistadrut Boulevard, Kfar Saba</Address>
    <Latitude>32.1749</Latitude>
    <Longitude>34.7631</Longitude>
    <LargestDistance>99</LargestDistance>
    <DistanceType>WalkingDistance</DistanceType>
  </Volunteer>
  <Volunteer>
    <Id>556986898</Id>
    <Name>Noa Biton</Name>
    <Phone>052-2349876</Phone>
    <Email>noabiton@example.com</Email>
    <IsActive>true</IsActive>
    <Role>Volunteer</Role>
    <Password />
    <Address>27 HaTzafon Street, Holon</Address>
    <Latitude>32.0926</Latitude>
    <Longitude>34.8036</Longitude>
    <LargestDistance>45</LargestDistance>
    <DistanceType>WalkingDistance</DistanceType>
  </Volunteer>
  <Volunteer>
    <Id>231575641</Id>
    <Name>Yonatan Katz</Name>
    <Phone>052-3459876</Phone>
    <Email>yonatankatz@example.com</Email>
    <IsActive>true</IsActive>
    <Role>Volunteer</Role>
    <Password />
    <Address>33 Jabotinsky Boulevard, Ramat Gan</Address>
    <Latitude>32.0814</Latitude>
    <Longitude>34.7862</Longitude>
    <LargestDistance>1</LargestDistance>
    <DistanceType>DrivingDistance</DistanceType>
  </Volunteer>
  <Volunteer>
    <Id>665037052</Id>
    <Name>Ruth Ziv</Name>
    <Phone>052-4569876</Phone>
    <Email>ruthziv@example.com</Email>
    <IsActive>true</IsActive>
    <Role>Volunteer</Role>
    <Password />
    <Address>25 Alkalai Street, Tel Aviv</Address>
    <Latitude>32.1311</Latitude>
    <Longitude>34.7927</Longitude>
    <LargestDistance>32</LargestDistance>
    <DistanceType>DrivingDistance</DistanceType>
  </Volunteer>
  <Volunteer>
    <Id>392516984</Id>
    <Name>Doron Barak</Name>
    <Phone>052-5679876</Phone>
    <Email>doronbarak@example.com</Email>
    <IsActive>true</IsActive>
    <Role>Volunteer</Role>
    <Password />
    <Address>6 HaAliya Street, Acre</Address>
    <Latitude>31.7665</Latitude>
    <Longitude>34.6292</Longitude>
    <LargestDistance>6</LargestDistance>
    <DistanceType>DrivingDistance</DistanceType>
  </Volunteer>
  <Volunteer>
    <Id>376063058</Id>
    <Name>Yaara Nachmias</Name>
    <Phone>052-6789876</Phone>
    <Email>yaaranachmias@example.com</Email>
    <IsActive>true</IsActive>
    <Role>Volunteer</Role>
    <Password />
    <Address>20 Jerusalem Boulevard, Bat Yam</Address>
    <Latitude>32.0509</Latitude>
    <Longitude>34.7657</Longitude>
    <LargestDistance>96</LargestDistance>
    <DistanceType>WalkingDistance</DistanceType>
  </Volunteer>
  <Volunteer>
    <Id>270423241</Id>
    <Name>Roi Tzukrel</Name>
    <Phone>052-7899876</Phone>
    <Email>roitzukrel@example.com</Email>
    <IsActive>true</IsActive>
    <Role>Volunteer</Role>
    <Password />
    <Address>2 HaTsiyonut Street, Rishon LeZion</Address>
    <Latitude>32.0354</Latitude>
    <Longitude>34.7894</Longitude>
    <LargestDistance>38</LargestDistance>
    <DistanceType>DrivingDistance</DistanceType>
  </Volunteer>
  <Volunteer>
    <Id>155863474</Id>
    <Name>Michal Adler</Name>
    <Phone>052-8909876</Phone>
    <Email>michaladler@example.com</Email>
    <IsActive>true</IsActive>
    <Role>Volunteer</Role>
    <Password />
    <Address>14 HaNasi Harishon Boulevard, Rehovot</Address>
    <Latitude>31.9737</Latitude>
    <Longitude>34.836</Longitude>
    <LargestDistance>54</LargestDistance>
    <DistanceType>AirDistance</DistanceType>
  </Volunteer>
  <Volunteer>
    <Id>500735325</Id>
    <Name>Shir Fridman</Name>
    <Phone>052-9019876</Phone>
    <Email>shirfridman@example.com</Email>
    <IsActive>true</IsActive>
    <Role>Volunteer</Role>
    <Password />
    <Address>11 King Solomon Street, Ashkelon</Address>
    <Latitude>32.0656</Latitude>
    <Longitude>34.804</Longitude>
    <LargestDistance>85</LargestDistance>
    <DistanceType>WalkingDistance</DistanceType>
  </Volunteer>
  <Volunteer>
    <Id>320782209</Id>
    <Name>Erez Dayan</Name>
    <Phone>052-0129876</Phone>
    <Email>erezdayan@example.com</Email>
    <IsActive>true</IsActive>
    <Role>Volunteer</Role>
    <Password />
    <Address>8 Harel Street, Modi'in</Address>
    <Latitude>31.673</Latitude>
    <Longitude>34.6489</Longitude>
    <LargestDistance>82</LargestDistance>
    <DistanceType>AirDistance</DistanceType>
  </Volunteer>
</ArrayOfVolunteer>