<?xml version="1.0" encoding="utf-8"?>
<ArrayOfVolunteer>
  <Volunteer>
    <Id>214323222</Id>
    <Name>Super Admin</Name>
    <Phone>052-0000000</Phone>
    <Email>rachlios2005@gmail.com</Email>
    <IsActive>true</IsActive>
    <Role>Manager</Role>
    <Address>mevo livna 5</Address>
    <Latitude>32.1</Latitude>
    <Longitude>34.8</Longitude>
    <LargestDistance>500000</LargestDistance>
    <DistanceType>DrivingDistance</DistanceType>
    <Password>fcf54686715f0c0e913801274a47380b6681da8440a9652cb92c1261e3af35e6</Password>
  </Volunteer>
  <Volunteer>
    <Id>215639212</Id>
    <Name>David Cohen</Name>
    <Phone>0166856401</Phone>
    <Email>davidcohen@gmail.com</Email>
    <IsActive>true</IsActive>
    <Role>Volunteer</Role>
    <Address>120 Dizengoff St, Tel Aviv</Address>
    <Latitude>32.0736</Latitude>
    <Longitude>34.7704</Longitude>
    <LargestDistance>63183</LargestDistance>
    <DistanceType>AirDistance</DistanceType>
  </Volunteer>
  <Volunteer>
    <Id>215525197</Id>
    <Name>Yaara Levy</Name>
    <Phone>0712039940</Phone>
    <Email>yaaralevy@gmail.com</Email>
    <IsActive>true</IsActive>
    <Role>Volunteer</Role>
    <Address>15 Herzl St, Haifa</Address>
    <Latitude>32.0739</Latitude>
    <Longitude>34.8221</Longitude>
    <LargestDistance>86451</LargestDistance>
    <DistanceType>WalkingDistance</DistanceType>
  </Volunteer>
  <Volunteer>
    <Id>328118245</Id>
    <Name>Matan Mizrahi</Name>
    <Phone>0323969125</Phone>
    <Email>matanmizrahi@gmail.com</Email>
    <IsActive>true</IsActive>
    <Role>Volunteer</Role>
    <Address>30 Jaffa St, Jerusalem</Address>
    <Latitude>32.8194</Latitude>
    <Longitude>34.989</Longitude>
    <LargestDistance>53326</LargestDistance>
    <DistanceType>AirDistance</DistanceType>
  </Volunteer>
  <Volunteer>
    <Id>214821423</Id>
    <Name>Tamar Shapiro</Name>
    <Phone>0374342564</Phone>
    <Email>tamarshapiro@gmail.com</Email>
    <IsActive>true</IsActive>
    <Role>Volunteer</Role>
    <Address>22 Rothschild Blvd, Tel Aviv</Address>
    <Latitude>32.0702</Latitude>
    <Longitude>34.7915</Longitude>
    <LargestDistance>60046</LargestDistance>
    <DistanceType>WalkingDistance</DistanceType>
  </Volunteer>
  <Volunteer>
    <Id>326365574</Id>
    <Name>Oren Ben-David</Name>
    <Phone>0884533814</Phone>
    <Email>orenben-david@gmail.com</Email>
    <IsActive>true</IsActive>
    <Role>Volunteer</Role>
    <Address>10 Derech HaShalom, Ramat Gan</Address>
    <Latitude>31.7702</Latitude>
    <Longitude>35.2137</Longitude>
    <LargestDistance>63870</LargestDistance>
    <DistanceType>DrivingDistance</DistanceType>
  </Volunteer>
  <Volunteer>
    <Id>328128061</Id>
    <Name>Yael Peretz</Name>
    <Phone>0998774090</Phone>
    <Email>yaelperetz@gmail.com</Email>
    <IsActive>true</IsActive>
    <Role>Volunteer</Role>
    <Address>1 HaNassi Blvd, Haifa</Address>
    <Latitude>32.0782</Latitude>
    <Longitude>34.7839</Longitude>
    <LargestDistance>8716</LargestDistance>
    <DistanceType>WalkingDistance</DistanceType>
  </Volunteer>
  <Volunteer>
    <Id>327770442</Id>
    <Name>Eliav Rosen</Name>
    <Phone>0466127840</Phone>
    <Email>eliavrosen@gmail.com</Email>
    <IsActive>true</IsActive>
    <Role>Volunteer</Role>
    <Address>45 HaAtzmaut Blvd, Ashdod</Address>
    <Latitude>32.3212</Latitude>
    <Longitude>34.8573</Longitude>
    <LargestDistance>53586</LargestDistance>
    <DistanceType>DrivingDistance</DistanceType>
  </Volunteer>
  <Volunteer>
    <Id>327548194</Id>
    <Name>Michal Goldstein</Name>
    <Phone>0985462480</Phone>
    <Email>michalgoldstein@gmail.com</Email>
    <IsActive>true</IsActive>
    <Role>Volunteer</Role>
    <Address>88 Allenby St, Tel Aviv</Address>
    <Latitude>32.0951</Latitude>
    <Longitude>34.8874</Longitude>
    <LargestDistance>16766</LargestDistance>
    <DistanceType>DrivingDistance</DistanceType>
  </Volunteer>
  <Volunteer>
    <Id>215086950</Id>
    <Name>Amir Kaplan</Name>
    <Phone>0441117803</Phone>
    <Email>amirkaplan@gmail.com</Email>
    <IsActive>true</IsActive>
    <Role>Volunteer</Role>
    <Address>12 Ben Gurion Blvd, Bat Yam</Address>
    <Latitude>32.1575</Latitude>
    <Longitude>34.7909</Longitude>
    <LargestDistance>77245</LargestDistance>
    <DistanceType>AirDistance</DistanceType>
  </Volunteer>
  <Volunteer>
    <Id>215215690</Id>
    <Name>Lior Avrahami</Name>
    <Phone>0197093591</Phone>
    <Email>lioravrahami@gmail.com</Email>
    <IsActive>true</IsActive>
    <Role>Volunteer</Role>
    <Address>20 King George St, Jerusalem</Address>
    <Latitude>29.5596</Latitude>
    <Longitude>34.9494</Longitude>
    <LargestDistance>77667</LargestDistance>
    <DistanceType>AirDistance</DistanceType>
  </Volunteer>
  <Volunteer>
    <Id>215252370</Id>
    <Name>Shani Shani</Name>
    <Phone>0914992266</Phone>
    <Email>shanishani@gmail.com</Email>
    <IsActive>true</IsActive>
    <Role>Volunteer</Role>
    <Address>132 Begin Road, Tel Aviv</Address>
    <Latitude>32.1749</Latitude>
    <Longitude>34.7631</Longitude>
    <LargestDistance>78565</LargestDistance>
    <DistanceType>DrivingDistance</DistanceType>
  </Volunteer>
  <Volunteer>
    <Id>328177191</Id>
    <Name>Noa Biton</Name>
    <Phone>0111929389</Phone>
    <Email>noabiton@gmail.com</Email>
    <IsActive>true</IsActive>
    <Role>Volunteer</Role>
    <Address>8 Keren Hayesod St, Jerusalem</Address>
    <Latitude>32.0926</Latitude>
    <Longitude>34.8036</Longitude>
    <LargestDistance>70016</LargestDistance>
    <DistanceType>DrivingDistance</DistanceType>
  </Volunteer>
  <Volunteer>
    <Id>328183934</Id>
    <Name>Yonatan Katz</Name>
    <Phone>0775521610</Phone>
    <Email>yonatankatz@gmail.com</Email>
    <IsActive>true</IsActive>
    <Role>Volunteer</Role>
    <Address>99 Ben Yehuda St, Tel Aviv</Address>
    <Latitude>32.0814</Latitude>
    <Longitude>34.7862</Longitude>
    <LargestDistance>96425</LargestDistance>
    <DistanceType>AirDistance</DistanceType>
  </Volunteer>
  <Volunteer>
    <Id>327786612</Id>
    <Name>Ruth Ziv</Name>
    <Phone>0568839672</Phone>
    <Email>ruthziv@gmail.com</Email>
    <IsActive>true</IsActive>
    <Role>Volunteer</Role>
    <Address>25 Weizmann St, Kfar Saba</Address>
    <Latitude>32.1311</Latitude>
    <Longitude>34.7927</Longitude>
    <LargestDistance>34509</LargestDistance>
    <DistanceType>DrivingDistance</DistanceType>
  </Volunteer>
  <Volunteer>
    <Id>328306550</Id>
    <Name>Doron Barak</Name>
    <Phone>0168359074</Phone>
    <Email>doronbarak@gmail.com</Email>
    <IsActive>true</IsActive>
    <Role>Volunteer</Role>
    <Address>14 Golani Brigade St, Afula</Address>
    <Latitude>31.7665</Latitude>
    <Longitude>34.6292</Longitude>
    <LargestDistance>52076</LargestDistance>
    <DistanceType>WalkingDistance</DistanceType>
  </Volunteer>
  <Volunteer>
    <Id>327820429</Id>
    <Name>Yaara Nachmias</Name>
    <Phone>0308615221</Phone>
    <Email>yaaranachmias@gmail.com</Email>
    <IsActive>true</IsActive>
    <Role>Volunteer</Role>
    <Address>33 Yehuda Halevi St, Tel Aviv</Address>
    <Latitude>32.0509</Latitude>
    <Longitude>34.7657</Longitude>
    <LargestDistance>15906</LargestDistance>
    <DistanceType>DrivingDistance</DistanceType>
  </Volunteer>
  <Volunteer>
    <Id>328276332</Id>
    <Name>Roi Tzukrel</Name>
    <Phone>0701345996</Phone>
    <Email>roitzukrel@gmail.com</Email>
    <IsActive>true</IsActive>
    <Role>Volunteer</Role>
    <Address>77 HaNassi Blvd, Haifa</Address>
    <Latitude>32.0354</Latitude>
    <Longitude>34.7894</Longitude>
    <LargestDistance>69631</LargestDistance>
    <DistanceType>DrivingDistance</DistanceType>
  </Volunteer>
  <Volunteer>
    <Id>328304944</Id>
    <Name>Michal Adler</Name>
    <Phone>0807664497</Phone>
    <Email>michaladler@gmail.com</Email>
    <IsActive>true</IsActive>
    <Role>Volunteer</Role>
    <Address>19 Arlozorov St, Tel Aviv</Address>
    <Latitude>31.9737</Latitude>
    <Longitude>34.836</Longitude>
    <LargestDistance>96847</LargestDistance>
    <DistanceType>AirDistance</DistanceType>
  </Volunteer>
  <Volunteer>
    <Id>215238023</Id>
    <Name>Shir Fridman</Name>
    <Phone>0510663599</Phone>
    <Email>shirfridman@gmail.com</Email>
    <IsActive>true</IsActive>
    <Role>Volunteer</Role>
    <Address>96 HaHashmonaim St, Tel Aviv</Address>
    <Latitude>32.0656</Latitude>
    <Longitude>34.804</Longitude>
    <LargestDistance>50401</LargestDistance>
    <DistanceType>DrivingDistance</DistanceType>
  </Volunteer>
  <Volunteer>
    <Id>327796678</Id>
    <Name>Erez Dayan</Name>
    <Phone>0252487588</Phone>
    <Email>erezdayan@gmail.com</Email>
    <IsActive>true</IsActive>
    <Role>Volunteer</Role>
    <Address>12 Menachem Begin Blvd, Rishon LeZion</Address>
    <Latitude>31.673</Latitude>
    <Longitude>34.6489</Longitude>
    <LargestDistance>99932</LargestDistance>
    <DistanceType>WalkingDistance</DistanceType>
  </Volunteer>
</ArrayOfVolunteer>