<?xml version="1.0" encoding="utf-8"?>
<ArrayOfVolunteer>
  <Volunteer>
    <Id>460028105</Id>
    <Name>David Cohen</Name>
    <Phone>052-1234567</Phone>
    <Email>davidcohen@example.com</Email>
    <IsActive>true</IsActive>
    <Role>Volunteer</Role>
    <Address>10 Nordau Boulevard, Tel Aviv</Address>
    <Latitude>32.0736</Latitude>
    <Longitude>34.7704</Longitude>
    <LargestDistance>92</LargestDistance>
    <DistanceType>WalkingDistance</DistanceType>
  </Volunteer>
  <Volunteer>
    <Id>273674569</Id>
    <Name>Yaara Levy</Name>
    <Phone>052-2345678</Phone>
    <Email>yaaralevy@example.com</Email>
    <IsActive>true</IsActive>
    <Role>Volunteer</Role>
    <Address>5 Bialik Street, Ramat Gan</Address>
    <Latitude>32.0739</Latitude>
    <Longitude>34.8221</Longitude>
    <LargestDistance>9</LargestDistance>
    <DistanceType>WalkingDistance</DistanceType>
  </Volunteer>
  <Volunteer>
    <Id>866361074</Id>
    <Name>Matan Mizrahi</Name>
    <Phone>052-3456789</Phone>
    <Email>matanmizrahi@example.com</Email>
    <IsActive>true</IsActive>
    <Role>Volunteer</Role>
    <Address>12 HaAtzmaut Street, Haifa</Address>
    <Latitude>32.8194</Latitude>
    <Longitude>34.989</Longitude>
    <LargestDistance>57</LargestDistance>
    <DistanceType>WalkingDistance</DistanceType>
  </Volunteer>
  <Volunteer>
    <Id>722907595</Id>
    <Name>Tamar Shapiro</Name>
    <Phone>052-4567890</Phone>
    <Email>tamarshapiro@example.com</Email>
    <IsActive>true</IsActive>
    <Role>Volunteer</Role>
    <Address>18 Eilat Street, Tel Aviv</Address>
    <Latitude>32.0702</Latitude>
    <Longitude>34.7915</Longitude>
    <LargestDistance>8</LargestDistance>
    <DistanceType>DrivingDistance</DistanceType>
  </Volunteer>
  <Volunteer>
    <Id>930202764</Id>
    <Name>Oren Ben-David</Name>
    <Phone>052-5678901</Phone>
    <Email>orenben-david@example.com</Email>
    <IsActive>true</IsActive>
    <Role>Volunteer</Role>
    <Address>22 David HaMelech Street, Jerusalem</Address>
    <Latitude>31.7702</Latitude>
    <Longitude>35.2137</Longitude>
    <LargestDistance>95</LargestDistance>
    <DistanceType>WalkingDistance</DistanceType>
  </Volunteer>
  <Volunteer>
    <Id>148997837</Id>
    <Name>Yael Peretz</Name>
    <Phone>052-6789012</Phone>
    <Email>yaelperetz@example.com</Email>
    <IsActive>true</IsActive>
    <Role>Volunteer</Role>
    <Address>30 Yehuda HaLevi Street, Tel Aviv</Address>
    <Latitude>32.0782</Latitude>
    <Longitude>34.7839</Longitude>
    <LargestDistance>62</LargestDistance>
    <DistanceType>AirDistance</DistanceType>
  </Volunteer>
  <Volunteer>
    <Id>720476410</Id>
    <Name>Eliav Rosen</Name>
    <Phone>052-7890123</Phone>
    <Email>eliavrosen@example.com</Email>
    <IsActive>true</IsActive>
    <Role>Volunteer</Role>
    <Address>15 HaRav Kook Street, Netanya</Address>
    <Latitude>32.3212</Latitude>
    <Longitude>34.8573</Longitude>
    <LargestDistance>69</LargestDistance>
    <DistanceType>DrivingDistance</DistanceType>
  </Volunteer>
  <Volunteer>
    <Id>802145233</Id>
    <Name>Michal Goldstein</Name>
    <Phone>052-8901234</Phone>
    <Email>michalgoldstein@example.com</Email>
    <IsActive>true</IsActive>
    <Role>Volunteer</Role>
    <Address>19 HaShomer Street, Petah Tikva</Address>
    <Latitude>32.0951</Latitude>
    <Longitude>34.8874</Longitude>
    <LargestDistance>50</LargestDistance>
    <DistanceType>DrivingDistance</DistanceType>
  </Volunteer>
  <Volunteer>
    <Id>307279068</Id>
    <Name>Amir Kaplan</Name>
    <Phone>052-9012345</Phone>
    <Email>amirkaplan@example.com</Email>
    <IsActive>true</IsActive>
    <Role>Volunteer</Role>
    <Address>9 Shderot HaGalim, Herzliya</Address>
    <Latitude>32.1575</Latitude>
    <Longitude>34.7909</Longitude>
    <LargestDistance>11</LargestDistance>
    <DistanceType>AirDistance</DistanceType>
  </Volunteer>
  <Volunteer>
    <Id>207807365</Id>
    <Name>Lior Avrahami</Name>
    <Phone>052-0123456</Phone>
    <Email>lioravrahami@example.com</Email>
    <IsActive>true</IsActive>
    <Role>Volunteer</Role>
    <Address>7 HaArava Street, Eilat</Address>
    <Latitude>29.5596</Latitude>
    <Longitude>34.9494</Longitude>
    <LargestDistance>76</LargestDistance>
    <DistanceType>AirDistance</DistanceType>
  </Volunteer>
  <Volunteer>
    <Id>920165831</Id>
    <Name>Shani Shani</Name>
    <Phone>052-1239876</Phone>
    <Email>shanishani@example.com</Email>
    <IsActive>true</IsActive>
    <Role>Volunteer</Role>
    <Address>4 HaHistadrut Boulevard, Kfar Saba</Address>
    <Latitude>32.1749</Latitude>
    <Longitude>34.7631</Longitude>
    <LargestDistance>5</LargestDistance>
    <DistanceType>DrivingDistance</DistanceType>
  </Volunteer>
  <Volunteer>
    <Id>369605820</Id>
    <Name>Noa Biton</Name>
    <Phone>052-2349876</Phone>
    <Email>noabiton@example.com</Email>
    <IsActive>true</IsActive>
    <Role>Volunteer</Role>
    <Address>27 HaTzafon Street, Holon</Address>
    <Latitude>32.0926</Latitude>
    <Longitude>34.8036</Longitude>
    <LargestDistance>5</LargestDistance>
    <DistanceType>WalkingDistance</DistanceType>
  </Volunteer>
  <Volunteer>
    <Id>660186776</Id>
    <Name>Yonatan Katz</Name>
    <Phone>052-3459876</Phone>
    <Email>yonatankatz@example.com</Email>
    <IsActive>true</IsActive>
    <Role>Volunteer</Role>
    <Address>33 Jabotinsky Boulevard, Ramat Gan</Address>
    <Latitude>32.0814</Latitude>
    <Longitude>34.7862</Longitude>
    <LargestDistance>94</LargestDistance>
    <DistanceType>DrivingDistance</DistanceType>
  </Volunteer>
  <Volunteer>
    <Id>998586062</Id>
    <Name>Ruth Ziv</Name>
    <Phone>052-4569876</Phone>
    <Email>ruthziv@example.com</Email>
    <IsActive>true</IsActive>
    <Role>Volunteer</Role>
    <Address>25 Alkalai Street, Tel Aviv</Address>
    <Latitude>32.1311</Latitude>
    <Longitude>34.7927</Longitude>
    <LargestDistance>86</LargestDistance>
    <DistanceType>AirDistance</DistanceType>
  </Volunteer>
  <Volunteer>
    <Id>469587739</Id>
    <Name>Doron Barak</Name>
    <Phone>052-5679876</Phone>
    <Email>doronbarak@example.com</Email>
    <IsActive>true</IsActive>
    <Role>Volunteer</Role>
    <Address>6 HaAliya Street, Acre</Address>
    <Latitude>31.7665</Latitude>
    <Longitude>34.6292</Longitude>
    <LargestDistance>9</LargestDistance>
    <DistanceType>DrivingDistance</DistanceType>
  </Volunteer>
  <Volunteer>
    <Id>345417882</Id>
    <Name>Yaara Nachmias</Name>
    <Phone>052-6789876</Phone>
    <Email>yaaranachmias@example.com</Email>
    <IsActive>true</IsActive>
    <Role>Volunteer</Role>
    <Address>20 Jerusalem Boulevard, Bat Yam</Address>
    <Latitude>32.0509</Latitude>
    <Longitude>34.7657</Longitude>
    <LargestDistance>86</LargestDistance>
    <DistanceType>AirDistance</DistanceType>
  </Volunteer>
  <Volunteer>
    <Id>133556094</Id>
    <Name>Roi Tzukrel</Name>
    <Phone>052-7899876</Phone>
    <Email>roitzukrel@example.com</Email>
    <IsActive>true</IsActive>
    <Role>Volunteer</Role>
    <Address>2 HaTsiyonut Street, Rishon LeZion</Address>
    <Latitude>32.0354</Latitude>
    <Longitude>34.7894</Longitude>
    <LargestDistance>20</LargestDistance>
    <DistanceType>AirDistance</DistanceType>
  </Volunteer>
  <Volunteer>
    <Id>479745680</Id>
    <Name>Michal Adler</Name>
    <Phone>052-8909876</Phone>
    <Email>michaladler@example.com</Email>
    <IsActive>true</IsActive>
    <Role>Volunteer</Role>
    <Address>14 HaNasi Harishon Boulevard, Rehovot</Address>
    <Latitude>31.9737</Latitude>
    <Longitude>34.836</Longitude>
    <LargestDistance>79</LargestDistance>
    <DistanceType>WalkingDistance</DistanceType>
  </Volunteer>
  <Volunteer>
    <Id>139732787</Id>
    <Name>Shir Fridman</Name>
    <Phone>052-9019876</Phone>
    <Email>shirfridman@example.com</Email>
    <IsActive>true</IsActive>
    <Role>Volunteer</Role>
    <Address>11 King Solomon Street, Ashkelon</Address>
    <Latitude>32.0656</Latitude>
    <Longitude>34.804</Longitude>
    <LargestDistance>2</LargestDistance>
    <DistanceType>DrivingDistance</DistanceType>
  </Volunteer>
  <Volunteer>
    <Id>193527062</Id>
    <Name>Erez Dayan</Name>
    <Phone>052-0129876</Phone>
    <Email>erezdayan@example.com</Email>
    <IsActive>true</IsActive>
    <Role>Volunteer</Role>
    <Address>8 Harel Street, Modi'in</Address>
    <Latitude>31.673</Latitude>
    <Longitude>34.6489</Longitude>
    <LargestDistance>60</LargestDistance>
    <DistanceType>WalkingDistance</DistanceType>
  </Volunteer>
</ArrayOfVolunteer>